{
    "강서구": {
        "name": "강서택배센터",
        "full_address": "서울 강서구 외발산동 429",
        "latitude": 37.548336,
        "longitude": 126.815947
    },
    "양천구": {
        "name": "강서택배센터",
        "full_address": "서울 강서구 외발산동 429",
        "latitude": 37.548336,
        "longitude": 126.815947
    },
    "은평구": {
        "name": "강서택배센터",
        "full_address": "서울 강서구 외발산동 429",
        "latitude": 37.548336,
        "longitude": 126.815947
    },
    "구로구": {
        "name": "구로택배센터",
        "full_address": "서울 금천구 가산디지털2로 83",
        "latitude": 37.475192,
        "longitude": 126.880603
    },
    "관악구": {
        "name": "구로택배센터",
        "full_address": "서울 금천구 가산디지털2로 83",
        "latitude": 37.475192,
        "longitude": 126.880603
    },
    "금천구": {
        "name": "구로택배센터",
        "full_address": "서울 금천구 가산디지털2로 83",
        "latitude": 37.475192,
        "longitude": 126.880603
    },
    "동작구": {
        "name": "구로택배센터",
        "full_address": "서울 금천구 가산디지털2로 83",
        "latitude": 37.475192,
        "longitude": 126.880603
    },
    "중랑구": {
        "name": "동대문택배센터",
        "full_address": "서울 동대문구 답십리로 99",
        "latitude": 37.574187,
        "longitude": 127.051564
    },
    "노원구": {
        "name": "동대문택배센터",
        "full_address": "서울 동대문구 답십리로 99",
        "latitude": 37.574187,
        "longitude": 127.051564
    },
    "도봉구": {
        "name": "동대문택배센터",
        "full_address": "서울 동대문구 답십리로 99",
        "latitude": 37.574187,
        "longitude": 127.051564
    },
    "동대문구": {
        "name": "동대문택배센터",
        "full_address": "서울 동대문구 답십리로 99",
        "latitude": 37.574187,
        "longitude": 127.051564
    },
    "마포구": {
        "name": "마포택배센터",
        "full_address": "서울 마포구 토정로 230",
        "latitude": 37.544276,
        "longitude": 126.936041
    },
    "서대문구": {
        "name": "마포택배센터",
        "full_address": "서울 마포구 토정로 230",
        "latitude": 37.544276,
        "longitude": 126.936041
    },
    "용산구": {
        "name": "마포택배센터",
        "full_address": "서울 마포구 토정로 230",
        "latitude": 37.544276,
        "longitude": 126.936041
    },
    "영등포구": {
        "name": "영등포택배센터",
        "full_address": "서울 구로구 경인로 110",
        "latitude": 37.524418,
        "longitude": 126.895984
    },
    "서초구": {
        "name": "서초택배센터",
        "full_address": "서울 서초구 논현로7길 7",
        "latitude": 37.472904,
        "longitude": 127.048578
    },
    "강남구": {
        "name": "서초택배센터",
        "full_address": "서울 서초구 논현로7길 7",
        "latitude": 37.472904,
        "longitude": 127.048578
    },
    "중구": {
        "name": "성수터미널",
        "full_address": "서울 성동구 아차산로15길 44",
        "latitude": 37.546795,
        "longitude": 127.063938
    },
    "종로구": {
        "name": "성수터미널",
        "full_address": "서울 성동구 아차산로15길 44",
        "latitude": 37.546795,
        "longitude": 127.063938
    },
    "성북구": {
        "name": "성수터미널",
        "full_address": "서울 성동구 아차산로15길 44",
        "latitude": 37.546795,
        "longitude": 127.063938
    },
    "성동구": {
        "name": "성수터미널",
        "full_address": "서울 성동구 아차산로15길 44",
        "latitude": 37.546795,
        "longitude": 127.063938
    },
    "강북구": {
        "name": "성수터미널",
        "full_address": "서울 성동구 아차산로15길 44",
        "latitude": 37.546795,
        "longitude": 127.063938
    },
    "광진구": {
        "name": "송파택배센터",
        "full_address": "서울 송파구 송파대로 55",
        "latitude": 37.474819,
        "longitude": 127.125965
    },
    "강동구": {
        "name": "송파택배센터",
        "full_address": "서울 송파구 송파대로 55",
        "latitude": 37.474819,
        "longitude": 127.125965
    },
    "송파구": {
        "name": "송파택배센터",
        "full_address": "서울 송파구 송파대로 55",
        "latitude": 37.474819,
        "longitude": 127.125965
    }
}
